city,state,zip_code,latitude,longitude,error
Chicago,IL,60602,41.8755616,-87.6244212,
Naperville,IL,60540,41.7728699,-88.1479278,
Peoria,IL,61602,40.6938609,-89.5891008,
Springfield,IL,62701,39.7990175,-89.6439575,
Rockford,IL,61104,42.2713945,-89.093966,
Ottawa,IL,61350,41.3516628,-88.845436,
